[{"address":"Cabugao, Cauayan, Isabela","name":"Abelardo Aguinaldo","Lat":"16.91024","Lon":"121.86118"},
    {"address":"Cabugao, Cauayan, Isabela","name":"Alberto Tulag","Lat":"16.92016","Lon":"121.85991"},
    {"address":"Cabugao, Cauayan, Isabela","name":"Alberto Tulag 2","Lat":"16.90962","Lon":"121.86363"},
    {"address":"Cabugao, Cauayan, Isabela","name":"Antonio Molina","Lat":"16.90634","Lon":"121.85569"},
    {"address":"Cabugao, Cauayan, Isabela","name":"Artemio Garcia","Lat":"16.90962","Lon":"121.86318"},
    {"address":"Cabugao, Cauayan, Isabela","name":"Ben Malano","Lat":"16.91696","Lon":"121.86295"},
    {"address":"Cabugao, Cauayan, Isabela","name":"Bernardo Bautista","Lat":"16.92995","Lon":"121.85401"},
    {"address":"Cabugao, Cauayan, Isabela","name":"Crispin Acosta","Lat":"16.90677","Lon":"121.851072"},
    {"address":"Cabugao, Cauayan, Isabela","name":"Danny Malano","Lat":"16.91236","Lon":"121.85313"},
    {"address":"Cabugao, Cauayan, Isabela","name":"Darwin Gonzalo","Lat":"16.91695","Lon":"121.85443"},
    {"address":"Cabugao, Cauayan, Isabela","name":"David Laserona","Lat":"16.90621","Lon":"121.85484"},
    {"address":"Cabugao, Cauayan, Isabela","name":"Erick Bautista","Lat":"16.91026","Lon":"121.85877"},
    {"address":"Cabugao, Cauayan, Isabela","name":"Ernesto Carlos Sr.","Lat":"16.92645","Lon":"121.85119"},
    {"address":"Cabugao, Cauayan, Isabela","name":"Evangelista Laureta","Lat":"16.92624","Lon":"121.85026"},
    {"address":"Cabugao, Cauayan, Isabela","name":"florencio larana","Lat":"16.91904","Lon":"121.861"},
    {"address":"Cabugao, Cauayan, Isabela","name":"Florentino Lelina 1","Lat":"16.9288","Lon":"121.85259"},
    {"address":"Cabugao, Cauayan, Isabela","name":"Florentino Lelina 2","Lat":"16.92929","Lon":"121.85272"},
    {"address":"Cabugao, Cauayan, Isabela","name":"Genaro Antonio 1","Lat":"16.91502","Lon":"121.8504"},
    {"address":"Cabugao, Cauayan, Isabela","name":"Genaro Antonio 2","Lat":"16.91511","Lon":"121.84922"},
    {"address":"Cabugao, Cauayan, Isabela","name":"Herardo Vita","Lat":"16.91955","Lon":"121.8516"},
    {"address":"Cabugao, Cauayan, Isabela","name":"Girlie Garmo","Lat":"16.90441","Lon":"121.85217"},
    {"address":"Cabugao, Cauayan, Isabela","name":"Hercules Agustin","Lat":"16.91567","Lon":"121.84908"},
    {"address":"Cabugao, Cauayan, Isabela","name":"Jaime Parralag 2","Lat":"16.90831","Lon":"121.853"},
    {"address":"Cabugao, Cauayan, Isabela","name":"Jonny Agayam","Lat":"16.92983","Lon":"121.85532"},
    {"address":"Cabugao, Cauayan, Isabela","name":"Jose rico, jr 1","Lat":"16.92944","Lon":"121.85426"},
    {"address":"Cabugao, Cauayan, Isabela","name":"Jose rico, jr 2","Lat":"16.92959","Lon":"121.8548"},
    {"address":"Cabugao, Cauayan, Isabela","name":"Jose rico, jr 3","Lat":"16.92842","Lon":"121.85224"},
    {"address":"Cabugao, Cauayan, Isabela","name":"Juan Molina","Lat":"16.90631","Lon":"121.85507"},
    {"address":"Cabugao, Cauayan, Isabela","name":"Marcelo Gabato","Lat":"16.91863","Lon":"121.86228"},
    {"address":"Cabugao, Cauayan, Isabela","name":"Margie Gulapan","Lat":"16.90909","Lon":"121.85302"},
    {"address":"Cabugao, Cauayan, Isabela","name":"Maria Arawla","Lat":"16.90991","Lon":"121.85452"},
    {"address":"Cabugao, Cauayan, Isabela","name":"Marvin Malano","Lat":"16.92973","Lon":"121.85313"},
    {"address":"Cabugao, Cauayan, Isabela","name":"Mercy malano 1","Lat":"16.91682","Lon":"121.86197"},
    {"address":"Cabugao, Cauayan, Isabela","name":"Mercy Molina","Lat":"16.91876","Lon":"121.85421"},
    {"address":"Cabugao, Cauayan, Isabela","name":"Margie Gulapan 2","Lat":"16.90962","Lon":"121.86279"},
    {"address":"Cabugao, Cauayan, Isabela","name":"Margie Gulapan 3","Lat":"16.90973","Lon":"121.86305"},
    {"address":"Cabugao, Cauayan, Isabela","name":"Minda Amaro","Lat":"16.91779","Lon":"121.86363"},
    {"address":"Cabugao, Cauayan, Isabela","name":"Norma Padron","Lat":"16.90952","Lon":"121.8636"},
    {"address":"Cabugao, Cauayan, Isabela","name":"Petra parallag","Lat":"16.91031","Lon":"121.8636"},
    {"address":"Cabugao, Cauayan, Isabela","name":"Remedios Ass","Lat":"16.92329","Lon":"121.85061"},
    {"address":"Cabugao, Cauayan, Isabela","name":"Renato Pascual","Lat":"16.9192","Lon":"121.8542"},
    {"address":"Cabugao, Cauayan, Isabela","name":"Rodolfo Asuncion","Lat":"16.9184","Lon":"121.854"},
    {"address":"Cabugao, Cauayan, Isabela","name":"Rolando Gonzalo 1","Lat":"16.93096","Lon":"121.85381"},
    {"address":"Cabugao, Cauayan, Isabela","name":"Rolando Gonzalo 2","Lat":"16.92855","Lon":"121.85414"},
    {"address":"Cabugao, Cauayan, Isabela","name":"Rosalinda Casita","Lat":"16.91831","Lon":"121.86308"},
    {"address":"Cabugao, Cauayan, Isabela","name":"Susy malano","Lat":"16.91837","Lon":"121.86511"},
    {"address":"Cabugao, Cauayan, Isabela","name":"Tranquilino Gonzalo 1","Lat":"16.90609","Lon":"121.85151"},
    {"address":"Cabugao, Cauayan, Isabela","name":"Tranquilino Gonzalo 2 ","Lat":"16.90651","Lon":"121.85117"},
    {"address":"Daragutan, San Mariano","name":"Arnel Alconcer","Lat":"16.90828333","Lon":"122.0241333"},
    {"address":"Daragutan, San Mariano","name":"Babylyn Langguido","Lat":"16.90523333","Lon":"122.0243333"},
    {"address":"Daragutan, San Mariano","name":"Celia rstrada","Lat":"16.90781667","Lon":"122.0231667"},
    {"address":"Daragutan, San Mariano","name":"Cesar Domingo","Lat":"16.90541667","Lon":"122.0248833"},
    {"address":"Daragutan, San Mariano","name":"chrisanto Limbawal","Lat":"16.90366667","Lon":"122.0211167"},
    {"address":"Daragutan, San Mariano","name":"Christian langido","Lat":"16.90725","Lon":"122.0229"},
    {"address":"Daragutan, San Mariano","name":"Christian Vinasol","Lat":"16.90696667","Lon":"122.0274333"},
    {"address":"Daragutan, San Mariano","name":"Conrado Alconcer","Lat":"16.90933333","Lon":"122.0234833"},
    {"address":"Daragutan, San Mariano","name":"corason Pua","Lat":"16.90998333","Lon":"122.0230333"},
    {"address":"Daragutan, San Mariano","name":"Danny sorisno","Lat":"16.90441667","Lon":"122.0226167"},
    {"address":"Daragutan, San Mariano","name":"David atara","Lat":"16.9059","Lon":"122.0223333"},
    {"address":"Daragutan, San Mariano","name":"Diego Maglay","Lat":"16.9114","Lon":"122.0227167"},
    {"address":"Daragutan, San Mariano","name":"Edmarson Pua","Lat":"16.91048333","Lon":"122.0226667"},
    {"address":"Daragutan, San Mariano","name":"Edralin Atara","Lat":"16.90791667","Lon":"122.0262833"},
    {"address":"Daragutan, San Mariano","name":"Emicio Miguel","Lat":"16.90393333","Lon":"122.0225667"},
    {"address":"Daragutan, San Mariano","name":"erlinda alconce rr","Lat":"16.90746667","Lon":"122.0250333"},
    {"address":"Daragutan, San Mariano","name":"faustino baloran calaudi","Lat":"16.90615","Lon":"122.0278333"},
    {"address":"Daragutan, San Mariano","name":"Felix Canseran","Lat":"16.91018333","Lon":"122.0239"},
    {"address":"Daragutan, San Mariano","name":"Ferdinand limbauan","Lat":"16.9036","Lon":"122.0217667"},
    {"address":"Daragutan, San Mariano","name":"Francisco Turuyen","Lat":"16.90356667","Lon":"122.0220667"},
    {"address":"Daragutan, San Mariano","name":"jaylord atara","Lat":"16.90951667","Lon":"122.0247"},
    {"address":"Daragutan, San Mariano","name":"Jocelyn Languido","Lat":"16.90496667","Lon":"122.0259"},
    {"address":"Daragutan, San Mariano","name":"joey conseran","Lat":"16.9071","Lon":"122.0266"},
    {"address":"Daragutan, San Mariano","name":"Jonathan Binasoy","Lat":"16.90363333","Lon":"122.0235667"},
    {"address":"Daragutan, San Mariano","name":"Joseph Alicuman","Lat":"16.90755","Lon":"122.0267833"},
    {"address":"Daragutan, San Mariano","name":"jovanie alconcer","Lat":"16.90816667","Lon":"122.0233333"},
    {"address":"Daragutan, San Mariano","name":"Julian Languido","Lat":"16.9077","Lon":"122.0269167"},
    {"address":"Daragutan, San Mariano","name":"Lydia Domingo","Lat":"16.90343333","Lon":"122.0242167"},
    {"address":"Daragutan, San Mariano","name":"Mar morales","Lat":"16.90871667","Lon":"122.0252333"},
    {"address":"Daragutan, San Mariano","name":"Marcelino Laguido","Lat":"16.90375","Lon":"122.0241833"},
    {"address":"Daragutan, San Mariano","name":"Marciana Longido","Lat":"16.91031667","Lon":"122.0240667"},
    {"address":"Daragutan, San Mariano","name":"Maribel Atero","Lat":"16.91061667","Lon":"122.0219333"},
    {"address":"Daragutan, San Mariano","name":"Marilyn Carganilla","Lat":"16.90478333","Lon":"122.0261333"},
    {"address":"Daragutan, San Mariano","name":"Mario atera","Lat":"16.91003333","Lon":"122.0230667"},
    {"address":"Daragutan, San Mariano","name":"Marivic Vinasoy","Lat":"16.90551667","Lon":"122.0275833"},
    {"address":"Daragutan, San Mariano","name":"Melanio Alconcer","Lat":"16.90793333","Lon":"122.0241833"},
    {"address":"Daragutan, San Mariano","name":"melchor morales","Lat":"16.90406667","Lon":"122.0211667"},
    {"address":"Daragutan, San Mariano","name":"Monica Velasco","Lat":"16.90376667","Lon":"122.0231"},
    {"address":"Daragutan, San Mariano","name":"muling managuelod","Lat":"16.90935","Lon":"122.0226167"},
    {"address":"Daragutan, San Mariano","name":"Normalita Andajir","Lat":"16.9052","Lon":"122.0257"},
    {"address":"Daragutan, San Mariano","name":"Pablo alconcer","Lat":"16.9079","Lon":"122.0241333"},
    {"address":"Daragutan, San Mariano","name":"Pauline Tumamo","Lat":"16.90496667","Lon":"122.0273333"},
    {"address":"Daragutan, San Mariano","name":"Rainer Vinasoy","Lat":"16.90478333","Lon":"122.0239667"},
    {"address":"Daragutan, San Mariano","name":"Rainer vinasoy","Lat":"16.90806667","Lon":"122.02335"},
    {"address":"Daragutan, San Mariano","name":"Rey tagle","Lat":"16.90873333","Lon":"122.0254333"},
    {"address":"Daragutan, San Mariano","name":"reynan arconsel 1","Lat":"16.90895","Lon":"122.0243667"},
    {"address":"Daragutan, San Mariano","name":"Reynan Arconsel 2","Lat":"16.90523333","Lon":"122.0273667"},
    {"address":"Daragutan, San Mariano","name":"Ricardo clavero","Lat":"16.90985","Lon":"122.0224167"},
    {"address":"Daragutan, San Mariano","name":"Ricardo Languido","Lat":"16.90511667","Lon":"122.0252167"},
    {"address":"Daragutan, San Mariano","name":"Richard Alejo","Lat":"16.90461667","Lon":"122.0270833"},
    {"address":"Daragutan, San Mariano","name":"romel alconser 3","Lat":"16.90913333","Lon":"122.0239167"},
    {"address":"Daragutan, San Mariano","name":"Ruperto Alconcer","Lat":"16.90871667","Lon":"122.0250667"},
    {"address":"Daragutan, San Mariano","name":"Rosie Atara","Lat":"16.91106667","Lon":"122.0222167"},
    {"address":"Daragutan, San Mariano","name":"Sancha Arconcel","Lat":"16.9057","Lon":"122.0278"},
    {"address":"Daragutan, San Mariano","name":"Marlon Tamang","Lat":"16.90651667","Lon":"122.0282167"},
    {"address":"Daragutan, San Mariano","name":"Warlito Atara Jr.","Lat":"16.90701667","Lon":"122.0270833"},
    {"address":"Maligaya, Cauayan","name":"Alfredo Santos","Lat":"16.85656667","Lon":"121.9110333"},
    {"address":"Maligaya, Cauayan","name":"Benjie Calipto","Lat":"16.85878333","Lon":"121.9155833"},
    {"address":"Maligaya, Cauayan","name":"Camilo Pascua (1)","Lat":"16.85734","Lon":"121.90269"},
    {"address":"Maligaya, Cauayan","name":"Camilo Pascua (2)","Lat":"16.85794","Lon":"121.90215"},
    {"address":"Maligaya, Cauayan","name":"Caridad Bermudes","Lat":"16.85592","Lon":"121.91202"},
    {"address":"Maligaya, Cauayan","name":"Carmelita Bangkil","Lat":"16.86129","Lon":"121.90715"},
    {"address":"Maligaya, Cauayan","name":"Catalino Dlemao (1)","Lat":"16.86373","Lon":"121.9088"},
    {"address":"Maligaya, Cauayan","name":"Catalino Dlemao (2)","Lat":"16.86211","Lon":"121.90546"},
    {"address":"Maligaya, Cauayan","name":"Catalino Dlemao (3)","Lat":"16.86133","Lon":"121.90558"},
    {"address":"Maligaya, Cauayan","name":"Cecilla Galutera","Lat":"16.85723","Lon":"121.91156"},
    {"address":"Maligaya, Cauayan","name":"Cecilia Pataray","Lat":"16.8613","Lon":"121.9054"},
    {"address":"Maligaya, Cauayan","name":"Crisanto Sersinia","Lat":"16.85773333","Lon":"121.9154667"},
    {"address":"Maligaya, Cauayan","name":"Edgar corpuz","Lat":"16.85316667","Lon":"121.9127667"},
    {"address":"Maligaya, Cauayan","name":"Edna Pelagio","Lat":"16.85731","Lon":"121.90907"},
    {"address":"Maligaya, Cauayan","name":"Flordelina Tuppil","Lat":"16.85216667","Lon":"121.9124833"},
    {"address":"Maligaya, Cauayan","name":"franklin pascual","Lat":"16.85639","Lon":"121.91158"},
    {"address":"Maligaya, Cauayan","name":"Jenny Sarmiento","Lat":"16.85646667","Lon":"121.9143167"},
    {"address":"Maligaya, Cauayan","name":"Jessie Guillermo","Lat":"16.8589","Lon":"121.9137833"},
    {"address":"Maligaya, Cauayan","name":"Jocelyn Baddungon","Lat":"16.85883333","Lon":"121.9128333"},
    {"address":"Maligaya, Cauayan","name":"Joey Pascual","Lat":"16.86132","Lon":"121.91621"},
    {"address":"Maligaya, Cauayan","name":"Jonathan Gabriel","Lat":"16.85288333","Lon":"121.9123"},
    {"address":"Maligaya, Cauayan","name":"Josephine Pataray","Lat":"16.85877","Lon":"121.9147"},
    {"address":"Maligaya, Cauayan","name":"Lary Pataray","Lat":"16.85982","Lon":"121.90775"},
    {"address":"Maligaya, Cauayan","name":"Lilia Ramosasa","Lat":"16.85593333","Lon":"121.9137667"},
    {"address":"Maligaya, Cauayan","name":"Leonida Gabon","Lat":"16.85442","Lon":"121.91152"},
    {"address":"Maligaya, Cauayan","name":"Luzviminda Corpuz","Lat":"16.85802","Lon":"121.90328"},
    {"address":"Maligaya, Cauayan","name":"Marby Pataray","Lat":"16.85664","Lon":"121.9139"},
    {"address":"Maligaya, Cauayan","name":"Marilyn Sugitan","Lat":"16.85806667","Lon":"121.9144333"},
    {"address":"Maligaya, Cauayan","name":"Marivic Gaspar","Lat":"16.85998","Lon":"121.91404"},
    {"address":"Maligaya, Cauayan","name":"marizel narvasa","Lat":"16.85846667","Lon":"121.91135"},
    {"address":"Maligaya, Cauayan","name":"Melanie Paragas","Lat":"16.85962","Lon":"121.91013"},
    {"address":"Maligaya, Cauayan","name":"Merlita Novesteras","Lat":"16.85844","Lon":"121.90868"},
    {"address":"Maligaya, Cauayan","name":"Menchy Pascual","Lat":"16.85823","Lon":"121.90443"},
    {"address":"Maligaya, Cauayan","name":"Mirnalyn Concepcion","Lat":"16.85104","Lon":"121.91177"},
    {"address":"Maligaya, Cauayan","name":"Noel Pilagio","Lat":"16.85321","Lon":"121.91188"},
    {"address":"Maligaya, Cauayan","name":"Ofelia Pataray","Lat":"16.85053","Lon":"121.91105"},
    {"address":"Maligaya, Cauayan","name":"Ofelia Pataray","Lat":"16.85955","Lon":"121.91536"},
    {"address":"Maligaya, Cauayan","name":"Pablito Tukib","Lat":"16.85408333","Lon":"121.9124167"},
    {"address":"Maligaya, Cauayan","name":"Rey Calipjo","Lat":"16.85481667","Lon":"121.9130833"},
    {"address":"Maligaya, Cauayan","name":"Richard Obasan","Lat":"16.85523333","Lon":"121.9136667"},
    {"address":"Maligaya, Cauayan","name":"Roda Santos","Lat":"16.85656","Lon":"121.91103"},
    {"address":"Maligaya, Cauayan","name":"Roger Novesteras","Lat":"16.86418","Lon":"121.90832"},
    {"address":"Maligaya, Cauayan","name":"Rolando Bajade, sr","Lat":"16.85534","Lon":"121.90317"},
    {"address":"Maligaya, Cauayan","name":"Romeo Bernardo","Lat":"16.86058","Lon":"121.91283"},
    {"address":"Maligaya, Cauayan","name":"Rosemari Corpuz","Lat":"16.85675","Lon":"121.9154333"},
    {"address":"Maligaya, Cauayan","name":"Robulyn Tuppil","Lat":"16.856666","Lon":"121.91274"},
    {"address":"Maligaya, Cauayan","name":"Ryan Glemeo","Lat":"16.85596667","Lon":"121.9100333"},
    {"address":"Maligaya, Cauayan","name":"Susana Corpuz","Lat":"16.85847","Lon":"121.91006"},
    {"address":"Maligaya, Cauayan","name":"Veronica Ballesteros","Lat":"16.8544","Lon":"121.9129167"},
    {"address":"Maligaya, Cauayan","name":"Virgilio Bahagi","Lat":"16.8569","Lon":"121.91489"},
    {"address":"Quinalabasa, Naguilian, Isabela","name":"Albert Canseran","Lat":"16.91342","Lon":"121.88066"},
    {"address":"Quinalabasa, Naguilian, Isabela","name":"Bong Salcedo","Lat":"16.92167","Lon":"121.88255"},
    {"address":"Quinalabasa, Naguilian, Isabela","name":"","Lat":"16.92154","Lon":"121.87663"},
    {"address":"Quinalabasa, Naguilian, Isabela","name":"Editha Miguel","Lat":"16.9253","Lon":"121.88266"},
    {"address":"Quinalabasa, Naguilian, Isabela","name":"Elli Garaduque","Lat":"16.92834","Lon":"121.88454"},
    {"address":"Quinalabasa, Naguilian, Isabela","name":"Greg Garaduque","Lat":"16.91356","Lon":"121.88069"},
    {"address":"Quinalabasa, Naguilian, Isabela","name":"Jimmy Clemente","Lat":"16.91868","Lon":"121.87987"},
    {"address":"Quinalabasa, Naguilian, Isabela","name":"Juliet canseran","Lat":"16.92567","Lon":"121.87786"},
    {"address":"Quinalabasa, Naguilian, Isabela","name":"Jun Bacani 1","Lat":"16.92144","Lon":"121.87778"},
    {"address":"Quinalabasa, Naguilian, Isabela","name":"Jun Bacani 2 ","Lat":"16.92227","Lon":"121.8734"},
    {"address":"Quinalabasa, Naguilian, Isabela","name":"Marlon Canceran 1","Lat":"16.92225","Lon":"121.87375"},
    {"address":"Quinalabasa, Naguilian, Isabela","name":"Marlon Canceran 2 ","Lat":"16.91868","Lon":"121.88034"},
    {"address":"Quinalabasa, Naguilian, Isabela","name":"Mercy Asuncion","Lat":"16.92358","Lon":"121.88279"},
    {"address":"Quinalabasa, Naguilian, Isabela","name":"Narciso Quitlong","Lat":"16.927","Lon":"121.88403"},
    {"address":"Quinalabasa, Naguilian, Isabela","name":"Norberto Espiritu","Lat":"16.92178","Lon":"121.87787"},
    {"address":"Quinalabasa, Naguilian, Isabela","name":"Paulo Andres","Lat":"16.92569","Lon":"121.88383"},
    {"address":"Quinalabasa, Naguilian, Isabela","name":"Pedro Garaduque","Lat":"16.92054","Lon":"121.88271"},
    {"address":"Quinalabasa, Naguilian, Isabela","name":"Samuel Bayagaca, jr 2","Lat":"16.92554","Lon":"121.87783"},
    {"address":"Quinalabasa, Naguilian, Isabela","name":"Samuel Carag","Lat":"16.9221","Lon":"121.883"},
    {"address":"Quinalabasa, Naguilian, Isabela","name":"Samuel Manggurit","Lat":"16.92751","Lon":"121.87629"},
    {"address":"Quinalabasa, Naguilian, Isabela","name":"Severino Bayaga 1","Lat":"16. 92719","Lon":"121.87689"},
    {"address":"San Jose, San Mariano","name":"Acinto Aguilar","Lat":"16.93883333","Lon":"122.1323"},
    {"address":"San Jose, San Mariano","name":"Ayleen Salvador","Lat":"16.93333333","Lon":"122.1294333"},
    {"address":"San Jose, San Mariano","name":"albert b. lano","Lat":"16.93968333","Lon":"122.1243167"},
    {"address":"San Jose, San Mariano","name":"babylie bulusan","Lat":"16.93618333","Lon":"122.1250833"},
    {"address":"San Jose, San Mariano","name":"Bernadette palahon","Lat":"16.93691667","Lon":"122.1322333"},
    {"address":"San Jose, San Mariano","name":"carlina salvador","Lat":"16.93673333","Lon":"122.1242167"},
    {"address":"San Jose, San Mariano","name":"Carmen Lorenzo","Lat":"16.94046667","Lon":"122.1285667"},
    {"address":"San Jose, San Mariano","name":"dailyn duldulao","Lat":"16.93916667","Lon":"122.1316667"},
    {"address":"San Jose, San Mariano","name":"Edgardo Ramirez","Lat":"16.9362","Lon":"122.1322333"},
    {"address":"San Jose, San Mariano","name":"Elijah martinez","Lat":"16.94135","Lon":"122.1266667"},
    {"address":"San Jose, San Mariano","name":"ernesto ancheta sr.","Lat":"16.94041667","Lon":"122.1302333"},
    {"address":"San Jose, San Mariano","name":"Evangeline domingo","Lat":"16.93886667","Lon":"122.1234167"},
    {"address":"San Jose, San Mariano","name":"flordilisa salvador","Lat":"16.93963333","Lon":"122.1302667"},
    {"address":"San Jose, San Mariano","name":"Nora galot","Lat":"16.93658333","Lon":"122.1244"},
    {"address":"San Jose, San Mariano","name":"Gilbert salvador","Lat":"16.93885","Lon":"122.1310667"},
    {"address":"San Jose, San Mariano","name":"Gina isla","Lat":"16.94105","Lon":"122.1273333"},
    {"address":"San Jose, San Mariano","name":"Glory Cabutotan","Lat":"16.94151667","Lon":"122.1284167"},
    {"address":"San Jose, San Mariano","name":"Jaime Dela Cruz Sr.","Lat":"16.93736667","Lon":"122.1322"},
    {"address":"San Jose, San Mariano","name":"Jemma Makasukog","Lat":"16.94196667","Lon":"122.1304833"},
    {"address":"San Jose, San Mariano","name":"jennelyn Domingo","Lat":"16.93583333","Lon":"122.1306667"},
    {"address":"San Jose, San Mariano","name":"johnny casucog","Lat":"16.94208333","Lon":"122.1305167"},
    {"address":"San Jose, San Mariano","name":"Josie santiago","Lat":"16.94008333","Lon":"122.1248667"},
    {"address":"San Jose, San Mariano","name":"Leonardo Garcia","Lat":"16.94051667","Lon":"122.1293333"},
    {"address":"San Jose, San Mariano","name":"Lilia garcia","Lat":"16.94095","Lon":"122.1271333"},
    {"address":"San Jose, San Mariano","name":"Cesardo cabututan","Lat":"16.94978333","Lon":"122.1290833"},
    {"address":"San Jose, San Mariano","name":"Maribel salvador","Lat":"16.93796667","Lon":"122.1237167"},
    {"address":"San Jose, San Mariano","name":"maridel La√±o","Lat":"16.93621667","Lon":"122.1323333"},
    {"address":"San Jose, San Mariano","name":"Marina gagucas","Lat":"16.93743333","Lon":"122.1319"},
    {"address":"San Jose, San Mariano","name":"marina sotto","Lat":"16.94066667","Lon":"122.1284667"},
    {"address":"San Jose, San Mariano","name":"Marissa Gayo","Lat":"16.94216667","Lon":"122.1301333"},
    {"address":"San Jose, San Mariano","name":"marites cabututan","Lat":"16.9402","Lon":"122.1298167"},
    {"address":"San Jose, San Mariano","name":"Marivic Cabutotam","Lat":"16.94293333","Lon":"122.1320833"},
    {"address":"San Jose, San Mariano","name":"Mark Sotto","Lat":"16.94038333","Lon":"122.1277"},
    {"address":"San Jose, San Mariano","name":"mark soyto","Lat":"16.94138333","Lon":"122.1259833"},
    {"address":"San Jose, San Mariano","name":"Michael ancheta","Lat":"16.94018333","Lon":"122.1250833"},
    {"address":"San Jose, San Mariano","name":"Milagros talaue","Lat":"16.9435","Lon":"122.1322833"},
    {"address":"San Jose, San Mariano","name":"Maira Santiago","Lat":"16.94278333","Lon":"122.1311667"},
    {"address":"San Jose, San Mariano","name":"Myra Lano","Lat":"16.94138333","Lon":"122.1285167"},
    {"address":"San Jose, San Mariano","name":"Nora Salvador","Lat":"16.93908333","Lon":"122.1312333"},
    {"address":"San Jose, San Mariano","name":"Pepito capututan","Lat":"16.94223333","Lon":"122.1317667"},
    {"address":"San Jose, San Mariano","name":"Phillip lorenzo","Lat":"16.93971667","Lon":"122.1242167"},
    {"address":"San Jose, San Mariano","name":"reynalyn Menipon","Lat":"16.9369","Lon":"122.1259833"},
    {"address":"San Jose, San Mariano","name":"Riza Ramos","Lat":"16.93748333","Lon":"122.1266333"},
    {"address":"San Jose, San Mariano","name":"Robinson salvador","Lat":"16.94133333","Lon":"122.1262667"},
    {"address":"San Jose, San Mariano","name":"robitp manipon","Lat":"16.94041667","Lon":"122.1301167"},
    {"address":"San Jose, San Mariano","name":"Roderick dela torre","Lat":"16.94208333","Lon":"122.1303667"},
    {"address":"San Jose, San Mariano","name":"Rommel macasaddu","Lat":"16.93805","Lon":"122.1321167"},
    {"address":"San Jose, San Mariano","name":"romelia galot","Lat":"16.93936667","Lon":"122.1239833"},
    {"address":"San Jose, San Mariano","name":"Jomar Salvador","Lat":"16.94076667","Lon":"122.1255167"},
    {"address":"San Jose, San Mariano","name":"Melchor Macasaddu","Lat":"16.94681667","Lon":"122.12735"},
    {"address":"San Jose, San Mariano","name":"Sonny dumalao","Lat":"16.94061667","Lon":"122.1277167"},
    {"address":"San Jose, San Mariano","name":"ubbog","Lat":"16.94268333","Lon":"122.13225"},
    {"address":"San Jose, San Mariano","name":"valentine clemento","Lat":"16.94065","Lon":"122.1292667"},
    {"address":"San Jose, San Mariano","name":"Virginia Miravalles","Lat":"16.9372","Lon":"122.1240667"},
    {"address":"Sta. Victoria, Naguilian, Isabela","name":"Alberto Vidad","Lat":"16.91322","Lon":"121.88203"},
    {"address":"Sta. Victoria, Naguilian, Isabela","name":"Alexander Sagayaga","Lat":"16.90902","Lon":"121.88557"},
    {"address":"Sta. Victoria, Naguilian, Isabela","name":"Alfredo Besiculan","Lat":"16.90117","Lon":"121.89436"},
    {"address":"Sta. Victoria, Naguilian, Isabela","name":"Analiza Andaya","Lat":"16.9078","Lon":"121.88885"},
    {"address":"Sta. Victoria, Naguilian, Isabela","name":"Analyn Ocampo","Lat":"16.91238","Lon":"121.88354"},
    {"address":"Sta. Victoria, Naguilian, Isabela","name":"Andres Agbunag","Lat":"16.90415","Lon":"121.8894"},
    {"address":"Sta. Victoria, Naguilian, Isabela","name":"Angeline Lagco","Lat":"16.90908","Lon":"121.88572"},
    {"address":"Sta. Victoria, Naguilian, Isabela","name":"Aronino Vidad","Lat":"16.90297","Lon":"121.89496"},
    {"address":"Sta. Victoria, Naguilian, Isabela","name":"Ben Salvador","Lat":"16.91309","Lon":"121.88527"},
    {"address":"Sta. Victoria, Naguilian, Isabela","name":"Christian Le Lina","Lat":"16.90169","Lon":"121.89664"},
    {"address":"Sta. Victoria, Naguilian, Isabela","name":"Constanfe Mangadap","Lat":"16.89619","Lon":"121.89582"},
    {"address":"Sta. Victoria, Naguilian, Isabela","name":"Danilo Andaya","Lat":"16.90714","Lon":"121.88609"},
    {"address":"Sta. Victoria, Naguilian, Isabela","name":"Danilo Domincil","Lat":"16.89923","Lon":"121.89714"},
    {"address":"Sta. Victoria, Naguilian, Isabela","name":"Dante Ramos","Lat":"16.90284","Lon":"121.89318"},
    {"address":"Sta. Victoria, Naguilian, Isabela","name":"Editha Agbanuag","Lat":"16.90102","Lon":"121.88985"},
    {"address":"Sta. Victoria, Naguilian, Isabela","name":"Edgardo sagayaga","Lat":"16.8968","Lon":"121.89742"},
    {"address":"Sta. Victoria, Naguilian, Isabela","name":"Eligo Aggabao","Lat":"16.90546","Lon":"121.8855"},
    {"address":"Sta. Victoria, Naguilian, Isabela","name":"Eligo Aggabao","Lat":"16.90872","Lon":"121.88223"},
    {"address":"Sta. Victoria, Naguilian, Isabela","name":"elvi domising","Lat":"16.89697","Lon":"121.89748"},
    {"address":"Sta. Victoria, Naguilian, Isabela","name":"Gina Mangadap","Lat":"16.89994","Lon":"121.89613"},
    {"address":"Sta. Victoria, Naguilian, Isabela","name":"Glenn Rivera","Lat":"16.90261","Lon":"121.89625"},
    {"address":"Sta. Victoria, Naguilian, Isabela","name":"Imelda Sagayaga","Lat":"16.898","Lon":"121.89729"},
    {"address":"Sta. Victoria, Naguilian, Isabela","name":"Jimmy Agbunas","Lat":"16.91156","Lon":"121.88521"},
    {"address":"Sta. Victoria, Naguilian, Isabela","name":"Jackie Viloria","Lat":"16.9096","Lon":"121.88444"},
    {"address":"Sta. Victoria, Naguilian, Isabela","name":"Jonathan Andaya","Lat":"16.89661","Lon":"121.89634"},
    {"address":"Sta. Victoria, Naguilian, Isabela","name":"Josie Sagayaga","Lat":"16.89641","Lon":"121.89663"},
    {"address":"Sta. Victoria, Naguilian, Isabela","name":"Jovelyn Fenandez","Lat":"16.9031","Lon":"121.89564"},
    {"address":"Sta. Victoria, Naguilian, Isabela","name":"Julio Cerullos","Lat":"16.90718","Lon":"121.88675"},
    {"address":"Sta. Victoria, Naguilian, Isabela","name":"Lanie Vidad","Lat":"16.91191","Lon":"121.88497"},
    {"address":"Sta. Victoria, Naguilian, Isabela","name":"Leonardo Sagayaga","Lat":"16.89582","Lon":"121.89661"},
    {"address":"Sta. Victoria, Naguilian, Isabela","name":"Leonardo Sagayaga","Lat":"16.90425","Lon":"121.8887"},
    {"address":"Sta. Victoria, Naguilian, Isabela","name":"Leonida Andaya","Lat":"16.90292","Lon":"121.89051"},
    {"address":"Sta. Victoria, Naguilian, Isabela","name":"Magdalena Villoria","Lat":"16.90269","Lon":"121.89663"},
    {"address":"Sta. Victoria, Naguilian, Isabela","name":"Manuel Lelima","Lat":"16.91003","Lon":"121.88275"},
    {"address":"Sta. Victoria, Naguilian, Isabela","name":"Marieta Cachuela","Lat":"16.9028","Lon":"121.895"},
    {"address":"Sta. Victoria, Naguilian, Isabela","name":"Maxima Ramino","Lat":"16.90102","Lon":"121.89014"},
    {"address":"Sta. Victoria, Naguilian, Isabela","name":"Mar Mangadap","Lat":"16.90508","Lon":"121.88595"},
    {"address":"Sta. Victoria, Naguilian, Isabela","name":"Milbert Talon","Lat":"16.89961","Lon":"121.8976"},
    {"address":"Sta. Victoria, Naguilian, Isabela","name":"Natividad Andaya","Lat":"16.89853","Lon":"121.89545"},
    {"address":"Sta. Victoria, Naguilian, Isabela","name":"Nick Salvador","Lat":"16.90426","Lon":"121.88954"},
    {"address":"Sta. Victoria, Naguilian, Isabela","name":"Noel Soriano","Lat":"16.90293","Lon":"121.89368"},
    {"address":"Sta. Victoria, Naguilian, Isabela","name":"Normalyn Recomita","Lat":"16.90414","Lon":"121.88759"},
    {"address":"Sta. Victoria, Naguilian, Isabela","name":"Pedro Pasicolan","Lat":"16.9024","Lon":"121.8956"},
    {"address":"Sta. Victoria, Naguilian, Isabela","name":"Redento Andaya","Lat":"16.90895","Lon":"121.88508"},
    {"address":"Sta. Victoria, Naguilian, Isabela","name":"Rolando Andaya","Lat":"16.90174","Lon":"121.89231"},
    {"address":"Sta. Victoria, Naguilian, Isabela","name":"Rolly merida","Lat":"16.90168","Lon":"121.88588"},
    {"address":"Sta. Victoria, Naguilian, Isabela","name":"Rosalyn Andaya","Lat":"16.90227","Lon":"121.89691"},
    {"address":"Sta. Victoria, Naguilian, Isabela","name":"Simyon Martines Jr","Lat":"16.90672","Lon":"121.88577"},
    {"address":"Sta. Victoria, Naguilian, Isabela","name":"Welita Lelina","Lat":"16.90108","Lon":"121.894"},
    {"address":"Sto. Tomas, Naguilian","name":"belens torqueza","Lat":"16.92298333","Lon":"121.9199667"},
    {"address":"Sto. Tomas, Naguilian","name":"bobby talaga","Lat":"16.93166667","Lon":"121.9243667"},
    {"address":"Sto. Tomas, Naguilian","name":"Carmelita Beldera","Lat":"16.92301667","Lon":"121.9268167"},
    {"address":"Sto. Tomas, Naguilian","name":"Carmelita Beldera 2","Lat":"16.92306667","Lon":"121.9268333"},
    {"address":"Sto. Tomas, Naguilian","name":"Danny talaga1","Lat":"16.91853333","Lon":"121.9245167"},
    {"address":"Sto. Tomas, Naguilian","name":"Fred zamora","Lat":"16.91543333","Lon":"121.9197167"},
    {"address":"Sto. Tomas, Naguilian","name":"George estabillo","Lat":"16.92651667","Lon":"121.92055"},
    {"address":"Sto. Tomas, Naguilian","name":"Jonalyn tomas","Lat":"16.92106667","Lon":"121.9127667"},
    {"address":"Sto. Tomas, Naguilian","name":"Jose torquez","Lat":"16.92883333","Lon":"121.92635"},
    {"address":"Sto. Tomas, Naguilian","name":"Jose torquez","Lat":"16.927","Lon":"121.9194333"},
    {"address":"Sto. Tomas, Naguilian","name":"Junie talaga","Lat":"16.92383333","Lon":"121.9244333"},
    {"address":"Sto. Tomas, Naguilian","name":"luz concepcion 1","Lat":"16.92286667","Lon":"121.9206833"},
    {"address":"Sto. Tomas, Naguilian","name":"luz concepcion 2","Lat":"16.92381667","Lon":"121.9206"},
    {"address":"Sto. Tomas, Naguilian","name":"Mirna dela cruz","Lat":"16.9159","Lon":"121.9234"},
    {"address":"Sto. Tomas, Naguilian","name":"nelia blanco","Lat":"16.92216667","Lon":"121.922"},
    {"address":"Sto. Tomas, Naguilian","name":"nida Delfinado","Lat":"16.92033333","Lon":"121.933"},
    {"address":"Sto. Tomas, Naguilian","name":"noli sambrano","Lat":"16.91838333","Lon":"121.9254667"},
    {"address":"Sto. Tomas, Naguilian","name":"Revelina blanco","Lat":"16.91426667","Lon":"121.92335"},
    {"address":"Sto. Tomas, Naguilian","name":"Reynaldo bulusan","Lat":"16.92108333","Lon":"121.9127"},
    {"address":"Sto. Tomas, Naguilian","name":"rowell jimenez","Lat":"16.92783333","Lon":"121.9272833"},
    {"address":"Sto. Tomas, Naguilian","name":"ruby sembrano","Lat":"16.93066667","Lon":"121.9256333"},
    {"address":"Sto. Tomas, Naguilian","name":"villamor juan","Lat":"16.9243","Lon":"121.91"}]